{
"type": "FeatureCollection",
"name": "poi",
"crs": { "type": "name", "properties": { "name": "urn:ogc:def:crs:OGC:1.3:CRS84" } },
"features": [
{ "type": "Feature", "properties": { "id": 0, "type": "mens", "name": "Men's Restroom", "cat": "Bathroom", "weektimes": null, "wendtimes": null, "descript": null, "img": null }, "geometry": { "type": "Point", "coordinates": [ 0.049984956890353, 51.50373406214355 ] } },
{ "type": "Feature", "properties": { "id": 1, "type": "womens", "name": "Women's Restroom", "cat": "Bathroom", "weektimes": null, "wendtimes": null, "descript": null, "img": null }, "geometry": { "type": "Point", "coordinates": [ 0.049906079581758, 51.503735599087598 ] } },
{ "type": "Feature", "properties": { "id": null, "type": "food", "name": "Soul and Grain Restaurant", "cat": "Restaurant", "weektimes": "M-F : 5am - 9pm", "wendtimes": "Sat : 5am - 12:30pm ,  Sun : 11am - 8:30pm", "descript": "Tuck into a balanced range of sandwiches, salads, hot boxes and fresh bakes, topped off with rich artisan coffee. Opening Hours. Monday to Saturday.", "img": "soul.jpeg" }, "geometry": { "type": "Point", "coordinates": [ 0.0496768976269, 51.503632447905083 ] } },
{ "type": "Feature", "properties": { "id": null, "type": "food", "name": "Costa Coffee", "cat": "Cafe", "weektimes": "M-F : 6:30am - 5pm", "wendtimes": "Sat : 9am - 2:30pm , Sun: 8:30 - 5pm", "descript": "Counter-service coffee chain offering hot drinks, iced coolers, sweet snacks and sandwiches.", "img": "costa.jpeg" }, "geometry": { "type": "Point", "coordinates": [ 0.049643014355198, 51.503334615142776 ] } },
{ "type": "Feature", "properties": { "id": null, "type": "info", "name": "British Airways Information", "cat": "Airline", "weektimes": null, "wendtimes": null, "descript": "Get information about your BA flight", "img": "ba.jpeg" }, "geometry": { "type": "Point", "coordinates": [ 0.049537349413541, 51.503465275600384 ] } },
{ "type": "Feature", "properties": { "id": null, "type": "info", "name": "Travelex Information", "cat": "Info Table", "weektimes": null, "wendtimes": null, "descript": "Exchange currency, transfer money abroad, or order travel money online with Travelex, offering great rates with home delivery, airport and bureau pick-up", "img": "travelex.webp" }, "geometry": { "type": "Point", "coordinates": [ 0.049511019561964, 51.503419385056517 ] } },
{ "type": "Feature", "properties": { "id": null, "type": "info", "name": "Swiss Air Information", "cat": "Info Table", "weektimes": null, "wendtimes": null, "descript": "Get information about your SwissAir flight", "img": "swiss.jpg" }, "geometry": { "type": "Point", "coordinates": [ 0.04958474314638, 51.503355466007697 ] } },
{ "type": "Feature", "properties": { "id": null, "type": "food", "name": "City Bar and Grill", "cat": "Restaurant", "weektimes": "M - F : 5am - 8pm", "wendtimes": "Sat: Closed ,  Sun: Closed", "descript": "A great range of classic dishes as well as alcoholic & non-alcoholic drinks for everyone!\n\n", "img": "citybar.jpeg" }, "geometry": { "type": "Point", "coordinates": [ 0.049958627038776, 51.503583279643834 ] } },
{ "type": "Feature", "properties": { "id": null, "type": "stairs", "name": null, "cat": "stairs", "weektimes": null, "wendtimes": null, "descript": null, "img": null }, "geometry": { "type": "Point", "coordinates": [ 0.049787483003524, 51.503617697432269 ] } },
{ "type": "Feature", "properties": { "id": null, "type": "elevator", "name": null, "cat": "stairs", "weektimes": null, "wendtimes": null, "descript": null, "img": null }, "geometry": { "type": "Point", "coordinates": [ 0.049852115782329, 51.503640170165752 ] } },
{ "type": "Feature", "properties": { "id": null, "type": "pret", "name": "Pret-A-Manger", "cat": "Shop", "weektimes": "M - F : 5am - 8pm", "wendtimes": "Sat : 6:15am - 1pm ,  Sun : 11am - 9pm", "descript": "Counter-serve chain for ready-made sandwiches plus breakfast, coffee, soups & salads.", "img": "pret.jpeg" }, "geometry": { "type": "Point", "coordinates": [ 0.049480016059978, 51.503664986536329 ] } },
{ "type": "Feature", "properties": { "id": null, "type": "whsmith", "name": "WHSmith", "cat": "Shop", "weektimes": "M - F : 6:15am - 9pm", "wendtimes": "Sat : 6:15am - 1pm ,  Sun : 11am - 9pm", "descript": "Welcome to WHSmith. Here you can find stationery, books, toys and games and many more products", "img": "whsmith.jpeg" }, "geometry": { "type": "Point", "coordinates": [ 0.049448867475589, 51.503516925678625 ] } },
{ "type": "Feature", "properties": { "id": null, "type": "lux", "name": "LuxAir", "cat": "Airline", "weektimes": null, "wendtimes": null, "descript": "Luxair, legally Luxair S.A., Société Luxembourgeoise de Navigation Aérienne, is the flag carrier of Luxembourg with its headquarters and hub at Luxembourg Airport.", "img": "lux.jpeg" }, "geometry": { "type": "Point", "coordinates": [ 0.049954343922543, 51.503525967010674 ] } },
{ "type": "Feature", "properties": { "id": null, "type": "swiss", "name": "SwissAir", "cat": "Airline", "weektimes": null, "wendtimes": null, "descript": "Swiss International Air Lines AG, colloquially known as SWISS, is the flag carrier of Switzerland and a subsidiary of the Lufthansa Group, as well as a Star Alliance member.", "img": "swiss.jpg" }, "geometry": { "type": "Point", "coordinates": [ 0.049954366897817, 51.503485847596387 ] } },
{ "type": "Feature", "properties": { "id": null, "type": "klm", "name": "KLM", "cat": "Airline", "weektimes": null, "wendtimes": null, "descript": "KLM Royal Dutch Airlines, legally Koninklijke Luchtvaart Maatschappij N.V., is the flag carrier of the Netherlands. KLM is headquartered in Amstelveen, with its hub at nearby Amsterdam Airport Schiphol.", "img": "klm.jpeg" }, "geometry": { "type": "Point", "coordinates": [ 0.049951152825975, 51.503447835159712 ] } },
{ "type": "Feature", "properties": { "id": null, "type": "ba", "name": "British Airways", "cat": "Airline", "weektimes": null, "wendtimes": null, "descript": "British Airways is the flag carrier airline of the United Kingdom. It is headquartered in London, England, near its main hub at Heathrow Airport. The airline is the second largest UK-based carrier.", "img": "ba.jpeg" }, "geometry": { "type": "Point", "coordinates": [ 0.049947938754134, 51.503409822691324 ] } },
{ "type": "Feature", "properties": { "id": null, "type": "ita", "name": "ITA Airways\n", "cat": "Airline", "weektimes": null, "wendtimes": null, "descript": "Italia Trasporto Aereo S.p.A., trading as ITA Airways, is the flag carrier of Italy, and the largest Italian airline by total number of passengers carried, by number of destinations served, and by fleet size.", "img": "ita.jpeg" }, "geometry": { "type": "Point", "coordinates": [ 0.049946502109317, 51.503370862962029 ] } },
{ "type": "Feature", "properties": { "id": null, "type": "cityjet", "name": "CityJet", "cat": "Airline", "weektimes": null, "wendtimes": null, "descript": "CityJet is an Irish regional airline with headquarters at Dublin Airport.", "img": "cityjet.jpg" }, "geometry": { "type": "Point", "coordinates": [ 0.049943117646372, 51.503333797659423 ] } },
{ "type": "Feature", "properties": { "id": null, "type": "swiss", "name": "SwissAir", "cat": "Airline", "weektimes": null, "wendtimes": null, "descript": "Swiss International Air Lines AG, colloquially known as SWISS, is the flag carrier of Switzerland and a subsidiary of the Lufthansa Group, as well as a Star Alliance member.", "img": "swiss.jpg" }, "geometry": { "type": "Point", "coordinates": [ 0.049641448170237, 51.503368046521757 ] } },
{ "type": "Feature", "properties": { "id": null, "type": "arrival", "name": null, "cat": null, "weektimes": null, "wendtimes": null, "descript": null, "img": null }, "geometry": null },
{ "type": "Feature", "properties": { "id": null, "type": "dept", "name": null, "cat": null, "weektimes": null, "wendtimes": null, "descript": null, "img": null }, "geometry": null }
]
}
